Name,Country,City,State/Province,Operator,Size (sq ft),Size (MW),Latitude,Longitude,Link,Operational Status,Savings_Per_MW,EJ_Demographic_Index,CO2_Avoided_MT,EJ_Energy_Burden_Pct,Electricity_Price_Used,Composite_Score,Classification,Score_SavingsPerMW,Score_Water,Score_OPEX,Score_Payback,Score_LoadGrowth,Payback_Years,OPEX_Impact_Pct,Estimated_Savings_USD,Missing_Inputs
DFW17,USA,Dallas,TX,Digital Realty,58000,6.9,32.97,-96.71,,Active,53.83,Good,136214,1.596,42.6,3818.7,3.3,0.0912,,,,,,,,,53.83,Good,45.4,62.5,40.0,68.08,66.67,1.596,4.0,939880.02,baseline_pue; load_growth_rate; energy_pct_opex
HOU2,USA,Houston,TX,TRG Datacenters,110000,24,29.93,-95.43,,Construction,59.51,Good,136214,0.459,42.6,13282.3,3.3,0.0912,,,,,,,,,59.51,Good,45.4,62.5,40.0,90.82,66.67,0.459,4.0,3269147.9,baseline_pue; load_growth_rate; energy_pct_opex
RCH-1,USA,Richmond,VA,Iron Mountain,364860,48,37.49,-77.24,,Construction,61.8,Good,145325,0.215,28.9,21049.5,2.9,0.0973,,,,,,,,,61.8,Good,48.44,62.5,40.0,95.7,66.67,0.215,4.0,6975616.03,baseline_pue; load_growth_rate; energy_pct_opex
SDC Manhattan,USA,New York,NY,Sabey Data Centers,222000,18,40.71,-74,,Active,79.68,Excellent,336653,0.248,36.3,7048.5,3.1,0.2254,,,,,,,,,79.68,Excellent,100,62.5,40.0,95.05,66.67,0.248,4.0,6059752.78,baseline_pue; load_growth_rate; energy_pct_opex
JFK12,USA,New York,NY,Digital Realty,38400,2.5,40.72,-74.01,,Active,72.01,Good,336653,1.782,36.3,979.0,3.1,0.2254,,,,,,,,,72.01,Good,100,62.5,40.0,64.35,66.67,1.782,4.0,841632.33,baseline_pue; load_growth_rate; energy_pct_opex
DEN-1,USA,Denver,CO,Iron Mountain,180000,12.3,39.7392,-104.9903,https://www.datacentermap.com/usa/colorado/denver/iron-mountain-den-1/specs/,Active,66.06,Good,198945,0.613,25.6,10315.4,2.6,0.1332,,,,,,,,,66.06,Good,66.31,62.5,40.0,87.74,66.67,0.613,4.0,2447021.73,baseline_pue; load_growth_rate; energy_pct_opex
SUPERNAP 8,USA,Las Vegas,NV,Switch,300000,50,36.06,-115.21,https://www.switch.com/inside-supernap-8-switchs-tier-iv-data-fortress/,Active,62.17,Good,148014,0.203,37.2,21780.9,2.7,0.0991,,,,,,,,,62.17,Good,49.34,62.5,40.0,95.95,66.67,0.203,4.0,7400688.9,baseline_pue; load_growth_rate; energy_pct_opex
SUPERNAP 9,USA,Las Vegas,NV,Switch,1200000,150,36.06,-115.22,https://www.datacenterknowledge.com/switches-routers/switch-gets-tier-iv-for-second-las-vegas-data-center,Active,62.85,Good,148014,0.068,37.2,65342.7,2.7,0.0991,,,,,,,,,62.85,Good,49.34,62.5,40.0,98.65,66.67,0.068,4.0,22202066.7,baseline_pue; load_growth_rate; energy_pct_opex
C Spire Starkville,USA,Starkville,MS,C Spire,23800,1.5,33.4504,-88.8184,https://www.datacentermap.com/usa/mississippi/starkville/c-spire-starkville/specs/,Active,42.99,Moderate,189237,5.284,39.5,787.2,5.3,0.1267,,,,,,,,,42.99,Moderate,63.08,62.5,40.0,0,66.67,5.284,4.0,283854.88,baseline_pue; load_growth_rate; energy_pct_opex
Col-3,USA,Columbus,OH,Cologix,160000,18,40.12,-83,https://www.datacentermap.com/usa/ohio/columbus/cclogix-col3/,Active,63.63,Good,172508,0.483,23.4,14087.2,3.3,0.1155,,,,,,,,,63.63,Good,57.5,62.5,40.0,90.34,66.67,0.483,4.0,3105152.82,baseline_pue; load_growth_rate; energy_pct_opex
BOS-1,USA,Boston,MA,Iron Mountain,21000,3.6,42.34,-71.64,https://www.datacentermap.com/usa/massachusetts/boston/iron-mountain-bos-1/specs/,Active,74.96,Good,349498,1.192,24.0,1112.9,3.2,0.234,,,,,,,,,74.96,Good,100,62.5,40.0,76.16,66.67,1.192,4.0,1258191.79,baseline_pue; load_growth_rate; energy_pct_opex
MSP-2,USA,Eagan,MN,DataBank,48860,5,44.84,-93.15,https://www.datacentermap.com/usa/minnesota/minneapolis/databank-se-minneapolis/specs/,Active,61.36,Good,197451,1.519,19.6,3395.9,2.8,0.1322,,,,,,,,,61.36,Good,65.82,62.5,40.0,69.61,66.67,1.519,4.0,987256.38,baseline_pue; load_growth_rate; energy_pct_opex
DFW-3,USA,Plano,TX,DataBank,72600,13.5,33.09,-96.82,https://www.datacentermap.com/usa/texas/dallas/databank-dfw3-plano/specs/,Active,57.73,Good,136214,0.816,42.6,7471.3,3.3,0.0912,,,,,,,,,57.73,Good,45.4,62.5,40.0,83.69,66.67,0.816,4.0,1838895.7,baseline_pue; load_growth_rate; energy_pct_opex
PDX-11,USA,Hillsboro,OR,Digital Realty,300800,54,45.5229,-122.9898,https://www.datacentermap.com/usa/oregon/portland/6675-ne-62nd/specs/,Active,64.89,Good,169671,0.164,24.1,23523.4,3.4,0.1136,,,,,,,,,64.89,Good,56.56,62.5,40.0,96.73,66.67,0.164,4.0,9162217.15,baseline_pue; load_growth_rate; energy_pct_opex
Richmond 1,USA,Richmond,VA,QTS Data Centers,2300000,238,37.49,-77.24527,,Active,62.65,Good,145325,0.043,28.9,104370.4,2.9,0.0973,,,,,,,,,62.65,Good,48.44,62.5,40.0,99.13,66.67,0.043,4.0,34587429.49,baseline_pue; load_growth_rate; energy_pct_opex
NVA06,USA,Leesburg,VA,STACK Infrastructure,"620,000",72,39.08,-77.56,,Active,62.15,Good,145325,0.143,28.9,31574.2,2.9,0.0973,,,,,,,,,62.15,Good,48.44,62.5,40.0,97.13,66.67,0.143,4.0,10463424.05,baseline_pue; load_growth_rate; energy_pct_opex
IAD-01,USA,Ashburn,VA,Aligned Data Centers,"370,000",60,39.01376,-77.4688,,Active,62.01,Good,145325,0.172,28.9,26311.9,2.9,0.0973,,,,,,,,,62.01,Good,48.44,62.5,40.0,96.56,66.67,0.172,4.0,8719520.04,baseline_pue; load_growth_rate; energy_pct_opex
IAD5,USA,Culpeper,VA,DataBank,"613,152",72,38.45016,-77.98,,Construction,62.15,Good,145325,0.143,28.9,31574.2,2.9,0.0973,,,,,,,,,62.15,Good,48.44,62.5,40.0,97.13,66.67,0.143,4.0,10463424.05,baseline_pue; load_growth_rate; energy_pct_opex
AUS2-AUS3,USA,Austin,TX,CyrusOne,242000,33,30.207,-97.701,,Active,60.14,Good,136214,0.334,42.6,18263.2,3.3,0.0912,,,,,,,,,60.14,Good,45.4,62.5,40.0,93.33,66.67,0.334,4.0,4495078.37,baseline_pue; load_growth_rate; energy_pct_opex
Downtown Dallas,USA,Dallas,TX,Flexential,"80,447",6.66,32.8011,-96.819,,Active,53.54,Good,136214,1.653,42.6,3685.9,3.3,0.0912,,,,,,,,,53.54,Good,45.4,62.5,40.0,66.93,66.67,1.653,4.0,907188.54,baseline_pue; load_growth_rate; energy_pct_opex
Red Oak,USA,Red Oak,TX,Compass Datacenters,"980,849",360,32.537,-96.8049,,Active,61.66,Good,136214,0.031,42.6,199235.2,3.3,0.0912,,,,,,,,,61.66,Good,45.4,62.5,40.0,99.39,66.67,0.031,4.0,49037218.56,baseline_pue; load_growth_rate; energy_pct_opex
CA1,USA,Santa Clara,CA,Vantage Data Centers,335000,77,37.37,-121.97,,Active,80.66,Excellent,373395,0.052,43.4,27700.0,2.5,0.25,,,,,,,,,80.66,Excellent,100,62.5,40.0,98.96,66.67,0.052,4.0,28751415.0,baseline_pue; load_growth_rate; energy_pct_opex
T5 LA,USA,Los Angeles,CA,T5 Data Centers,"112,292",12,34.05,-118.24,,Active,79.24,Excellent,373395,0.335,43.4,4316.9,2.5,0.25,,,,,,,,,79.24,Excellent,100,62.5,40.0,93.3,66.67,0.335,4.0,4480740.0,baseline_pue; load_growth_rate; energy_pct_opex
Piscataway 1,USA,Piscataway,NJ,QTS Data Centers,"360,000",65,40.557,-74.484,,Active,73.31,Good,238973,0.097,31.8,31631.1,2.9,0.16,,,,,,,,,73.31,Good,79.66,62.5,40.0,98.07,66.67,0.097,4.0,15533232.0,baseline_pue; load_growth_rate; energy_pct_opex
SDC Seattle,USA,Seattle,WA,Sabey,"1,200,000",54,47.493,-122.294,,Active,64.24,Good,164294,0.169,25.9,23523.4,2.5,0.11,,,,,,,,,64.24,Good,54.76,62.5,40.0,96.62,66.67,0.169,4.0,8871865.2,baseline_pue; load_growth_rate; energy_pct_opex
MIN5 ,USA,Minneapolis,MN,Cologix,10000,1.5,44.97,-93.25,,Active,43.95,Moderate,197451,5.065,19.6,1018.8,2.8,0.1322,,,,,,,,,43.95,Moderate,65.82,62.5,40.0,0,66.67,5.065,4.0,296176.91,baseline_pue; load_growth_rate; energy_pct_opex
EWR20,USA,Clifton,NJ,Digital Realty,"183,000",2.2,40.83009928,-74.12669901,,Active,59.53,Good,238973,2.853,31.8,1070.6,2.9,0.16,,,,,,,,,59.53,Good,79.66,62.5,40.0,42.94,66.67,2.853,4.0,525740.16,baseline_pue; load_growth_rate; energy_pct_opex
Fortress SF1,USA,San Francisco,CA,Fortress,105225,3,37.78271881,-122.3913791,,Active,74.22,Good,373395,1.339,43.4,1079.2,2.5,0.25,,,,,,,,,74.22,Good,100,62.5,40.0,73.22,66.67,1.339,4.0,1120185.0,baseline_pue; load_growth_rate; energy_pct_opex
SVY01C,USA,San Jose,CA,STACK Infrastructure,1030000,100,37.40184,-121.895,,Active,,,,,,,,,,,,,,,,
LAX12,USA,Los Angeles,CA,Digital Realty,66800,7.1,33.91589,-118.385,,Active,,,,,,,,,,,,,,,,
PNW1,USA,Quincy,WA,CyrusOne,720000,90,47.24403,-119.87,,Active,,,,,,,,,,,,,,,,
Gotspace Norwich Campus,USA,Norwich,CT,Gotspace,470508,96,41.5894,-72.1025,,Planned,,,,,,,,,,,,,,,,
MN01,USA,Minneapolis,MN,US Signal,18000,5.4,44.8773,-93.4078,,Active,,,,,,,,,,,,,,,,
NYM1,USA,Newark,NJ,CyrusOne,185000,40,40.53822,-74.5462,,Active,,,,,,,,,,,,,,,,
EDCSEA01,USA,Seattle,WA,EdgeConneX,11300,4.5,47.49829,-122.29,,Active,,,,,,,,,,,,,,,,
GDC CA3,USA,Sacramento,CA,NTT Data,68469,14,38.6445464562026,-121.498630565793,,Active,,,,,,,,,,,,,,,,
GDC CA1,USA,Sacramento,CA,NTT Data,105805,12.6,38.6505642634243,-121.489322708311,,Active,,,,,,,,,,,,,,,,
GDC CA2,USA,Sacramento,CA,NTT Data,87855,26.1,38.6505161262222,-121.491885551458,,Active,,,,,,,,,,,,,,,,
SJC14,USA,Santa Clara,CA,Digital Realty,65500,4.8,37.3758812367629,-121.955165123726,,Active,,,,,,,,,,,,,,,,
SJC10,USA,Santa Clara,CA,Digital Realty,67900,6.3,37.3760001871896,-121.953280678667,,Active,,,,,,,,,,,,,,,,
SJC35,USA,Santa Clara,CA,Digital Realty,34200,6,37.3791998255145,-121.957986893777,,Active,,,,,,,,,,,,,,,,
EWR14,USA,Carlstadt,NJ,Digital Realty,20100,2.2,40.8280706171736,-74.0494390534576,,Active,,,,,,,,,,,,,,,,
EQR21,USA,Clifton,NJ,Digital Realty,55200,30,40.8309681366503,-74.1248998645726,,Active,,,,,,,,,,,,,,,,
SEA10,USA,Seattle,WA,Digital Realty,398600,19.5,47.6145281546855,-122.338872762633,,Active,,,,,,,,,,,,,,,,
MSP3,USA,Brooklyn Park,MN,DataBank,82231,9,45.1439083899976,-93.3871858224896,,Active,,,,,,,,,,,,,,,,
MSP4,USA,Minneapolis,MN,DataBank,8170,0.779,44.9715601471118,-93.2546018514025,,Active,,,,,,,,,,,,,,,,
Equinix HE2,Finland,Helsinki,Uusimaa,Equinix,2906,1,60.17,24.96,,Active,,,,,,,,,,,,,,,,
Echelon LCY10,United Kingdom,London,N/A,Echelon Data Centres,129167,17,51.49,-0.016,,Active,,,,,,,,,,,,,,,,
Cloud House West (LHR19),United Kingdom,London,N/A,Digital Realty,29299,2.1,51.5,-0.018,,Active,,,,,,,,,,,,,,,,
Apto DC Madrid Campus,Spain,Fuenlabrada,Community of Madrid,Apto,2100000,240,40.26,-3.82,,Construction,,,,,,,,,,,,,,,,
Equinix BA2,Spain,Barcelona,Catalonia,Equinix,26910,3.4,41.35,2.1,,Active,,,,,,,,,,,,,,,,
Templus Lisbon,Portugal,Lisbon,Estremadura,Templus,5920,1.3,38.7,-9.18,,Active,,,,,,,,,,,,,,,,
LDeX Manchester (LDeX3),United Kingdom,Manchester,N/A,LDeX Group,107639,1.5,53.47,-2.29,,Active,,,,,,,,,,,,,,,,
Théséé Data Center 2,France,Paris,Île-de-France,Théséé Data Center,68889,3,48.77,2.06,,Construction,,,,,,,,,,,,,,,,
Via delle Testuggini (ROM1),Italy,Rome,Lazio,Digital Realty,172222,35.6,41.78,12.49,,Construction,,,,,,,,,,,,,,,,
ITENOS Frankfurt 3,Germany,Eschborn,Hesse,ITENOS,26910,2.4,50.14,8.55,,Active,,,,,,,,,,,,,,,,
LON-1-3,United Kingdom,London,N/A,Iron Mountain,430556.42,41,51.5268,-0.633,,Construction,,,,,,,,,,,,,,,,
Hayes,United Kingdom,London,N/A,VIRTUS Data Centres,64583.46,12,51.496,-0.4038,,Active,,,,,,,,,,,,,,,,
CWL1 Cardiff,United Kingdom,Newport,South Wales,Vantage Data Centers,,148,51.555,-3.0375,,Construction,,,,,,,,,,,,,,,,
Lon-1,United Kingdom,London,N/A,CyrusOne,,N/A,51.523,-0.622,,Active,,,,,,,,,,,,,,,,
Global Hubs - London,United Kingdom,London,London,Epsilon,5489.594,1.4,51.52503825,-0.084904922,,Active,,,,,,,,,,,,,,,,
Spring Park,United Kingdom,Corsham,South West,Ark Data Centres,1001043.7,55,51.41919504,-2.21803301,,Active,,,,,,,,,,,,,,,,
MaNOC,United Kingdom,Manchester,North West,ANS,8000,2,53.46105715,-2.326724951,,Active,,,,,,,,,,,,,,,,
MCR1,United Kingdom,Manchester,North West,Datum,22000,2,53.37925914,-2.258404563,,Active,,,,,,,,,,,,,,,,
LBL1,United Kingdom,Liverpool,"North Wales, Merseyside & Cheshire",nLighten,1765,5.3,53.34308449,-2.973388309,,Active,,,,,,,,,,,,,,,,
D15 CXE2,Ireland,Dublin,,Servecentric,,5,53.349459762418135,-6.262873011923818,,Active,,,,,,,,,,,,,,,,
DUB3,Ireland,Kilmahuddrick,,Digital Realty,3047,4.6,53.332391045468135,-6.384142539785556,,Active,,,,,,,,,,,,,,,,
Dub2,Ireland,Dublin,,Digital Realty,2620,3.4,53.34976874315787,-6.2708648952843955,,Active,,,,,,,,,,,,,,,,
Dub10,Ireland,Dublin,,Digital Realty,5110,4.2,53.34262943897212,-6.255242501392136,,Active,,,,,,,,,,,,,,,,
Dub13,Ireland,Kilcarbery,,Digital Realty,1970,3.8,53.32396341354435,-6.417800143954664,,Active,,,,,,,,,,,,,,,,
Dub11,Ireland,Clonshaugh,,Digital Realty,1858,3,53.398517866898025,-6.19205075077878,,Active,,,,,,,,,,,,,,,,
Weismullerstrasse 32-40 (FRA7),Germany,Frankfurt,,Digital Realty,3214,1.8,50.09296827786016,8.666058686596271,,Active,,,,,,,,,,,,,,,,
Weismullerstrasse 34 (FRA14),Germany,Frankfurt,,Digital Realty,4989,9.6,50.110683853297424,8.692017218248568,,Active,,,,,,,,,,,,,,,,
Weismullerstrase 1 (FRA15),Germany,Frankfurt,,Digital Realty,10786,19.2,50.09474306770035,8.688467893205102,,Active,,,,,,,,,,,,,,,,
Weismullerstrase 36 (FRA8),Germany,Frankfurt,,Digital Realty,3995,5.4,50.12048186213181,8.672060692145399,,Active,,,,,,,,,,,,,,,,
Hanauer Landstrasse 304-306 (FRA2),Germany,Frankfurt,,Digital Realty,1477,0.4,50.12025651785535,8.695851267610193,,Active,,,,,,,,,,,,,,,,
1-3 Rue Rateau (PAR7),France,Paris,,Digital Realty,10247,16.8,48.84836814523488,2.3687107552475983,,Active,,,,,,,,,,,,,,,,
11-15 Rue Galilee (PAR6),France,Paris,,Digital Realty,1496,1,48.85819811687323,2.3484622158207924,,Active,,,,,,,,,,,,,,,,
16 Joseph Froelicher (PAR12),France,Paris,,Digital Realty,5630,12,48.86246687584181,2.36076473093423,,Active,,,,,,,,,,,,,,,,
2 Marcel Cachin (PAR8),France,Paris,,Digital Realty,9670,19.2,48.85776165351281,2.338767651518996,,Active,,,,,,,,,,,,,,,,
11-13 Avenue DEd Arts et MEtiers (PR5),France,Paris,,Digital Realty,4394,8.4,48.840120236676,2.338391780271055,,Active,,,,,,,,,,,,,,,,
Industriparken 24 CPH3,Denmark,Ballerup,,Digital Realty,1403,4.8,55.715000967453896,12.374260171393063,,Active,,,,,,,,,,,,,,,,
Goldwsworth PArk Trading Estate (LGW14),United Kingdom,London,,Digital Realty,5575,84,51.51630857391741,-0.1384885615077921,,Active,,,,,,,,,,,,,,,,
Oliver's Tard (LHR18),United Kingdom,London,,Digital Realty,2450,4,51.50445663202711,-0.11953372197868561,,Active,,,,,,,,,,,,,,,,
1 Airport Gate (LHR17),United Kingdom,London,,Digital Realty,4153,2.9,51.487617326398365,-0.1246926693191123,,Active,,,,,,,,,,,,,,,,
11 Hanbury Street (LON1),United Kingdom,London,,Digital Realty,5649,6.2,51.49452892465835,-0.11575476290115334,,Active,,,,,,,,,,,,,,,,
11 Hanbury Street (LON2),United Kingdom,London,,Digital Realty,1468,2,51.51245712814638,-0.1297448777994872,,Active,,,,,,,,,,,,,,,,
Sovereign House (LHR20),United Kingdom,London,,Digital Realty,4998,4.8,51.494878653772254,-0.14441133381944912,,Active,,,,,,,,,,,,,,,,
h.J.E Wenckebachweg 127 (AMS18),NEtherlands,Amsterdam,,Digital Realty,2741,6.6,52.369143850709165,4.9157536154616555,,Active,,,,,,,,,,,,,,,,
Science PArk 121 (AMS9),NEtherlands,Amsterdam,,Digital Realty,2629,2.6,52.380733162895474,4.8924582138883554,,Active,,,,,,,,,,,,,,,,
Pudongweg 25 (AMS10),NEtherlands,Amsterdam,,Digital Realty,16555,31.2,52.370487067547465,4.8946852508376395,,Active,,,,,,,,,,,,,,,,
Pudonweg 37 (AMS8),Netherlands,Amsterdam,,Digital Realty,10006,14.8,52.36951170579629,4.893062083891285,,Active,,,,,,,,,,,,,,,,
Science Park 120 (AMS17),Netherlands,Amsterdam,,Digital Realty,5491,8.2,52.35957893278829,4.899199776033474,,Active,,,,,,,,,,,,,,,,
ESbogatan 11 (STO1),Sweden,Stockholm,Kista,Digital Realty,1877,3.3,59.34502676203679,18.061646403052848,,Active,,,,,,,,,,,,,,,,
Esbogatan 11 (STO5),Sweden,Stockholm,Kista,Digital Realty,1849,3.4,59.34449708232762,18.050528964749503,,Active,,,,,,,,,,,,,,,,
ESbogatan 11 (STO4),Sweden,Stockholm,Kista,Digital Realty,948,1.8,59.32085416608876,18.06410782256725,,Active,,,,,,,,,,,,,,,,
LGW14,United Kingdom,Woking,London,Digital Realty,60008.801,84,51.323400057859,-0.586313178113241,,Active,,,,,,,,,,,,,,,,
MCR2,United Kingdom,Manchester,North West,Datum,44702.52,4,53.3788679905762,-2.25860953616198,,Active,,,,,,,,,,,,,,,,
Axon Reservoir,United Kingdom,Liverpool,"North Wales, Merseyside & Cheshire",Baltic Broadband Limited,3500,3.6,53.4178408377192,-3.04554752015354,,Active,,,,,,,,,,,,,,,,
Liverpool City King Edward,United Kingdom,Liverpool,"North Wales, Merseyside & Cheshire",Baltic Broadband Limited,6800,1,53.4112448170424,-2.99839154587273,,Active,,,,,,,,,,,,,,,,
LHR13,United Kingdom,Chessington,London,Digital Realty,16145.87,18,51.3690669002207,-0.29115616517208,,Active,,,,,,,,,,,,,,,,
LHR18,United Kingdom,London,London,Digital Realty,26371.5805,4,51.5242615729811,-0.0873228370295861,,Active,,,,,,,,,,,,,,,,
Cloud House LHR30,United Kingdom,London,,Digital Realty,8609,4.5,51.523052232986934,-0.12288224803738261,,Active,,,,,,,,,,,,,,,,
11 Hanbury Street LON3,United Kingdom,London,,Digital Realty,1867,2.7,51.50980721598863,-0.12048581031161741,,Active,,,,,,,,,,,,,,,,
11 Hanbury Street LON1,United Kingdom,London,,Digital Realty,5649,6.2,51.5199769378324,-0.14245734984137348,,Active,,,,,,,,,,,,,,,,
The Chess Building,United Kingdom,Watford,,Capital Land,8400,31,51.66426337462903,-0.4073223107509434,,Active,,,,,,,,,,,,,,,,
630 Ajax Ave LHR26,United Kingdom,Slough,,Digital Realty,6949,9,51.499192477121746,-0.5929172179678618,,Active,,,,,,,,,,,,,,,,
29-31 FRA12,Germany,Frankfurt,,Digital Realty,1217,1.5,50.09473396414663,8.682056154962376,,Active,,,,,,,,,,,,,,,,
Lyoner Strasse 28 FRA28,Germany,Frankfurt,,Digital Realty,2768,3.9,50.119150171832565,8.66538398028025,,Active,,,,,,,,,,,,,,,,
Hanauer Landstrasse 320 FRA18,Germany,Frankfurt,,Digital Realty,8080,16,50.11479694180565,8.662874693218646,,Active,,,,,,,,,,,,,,,,
Weismullerstrasse 25-27 FRA9,Germany,Frankfurt,,Digital Realty,1886,1.2,50.11518670826415,8.698972858154445,,Active,,,,,,,,,,,,,,,,
Wilhelm Fay Strasse 24 FRA30,Germany,Frankfurt,,Digital Realty,6800,9,50.11630434449881,8.68248036128768,,Active,,,,,,,,,,,,,,,,
21 Rue du Port PAR4,France,Paris,,Digital Realty,1719,1.4,48.8450987074598,2.3582177556483885,,Active,,,,,,,,,,,,,,,,
7-9 avenue des Arts et MEtiers PAR3,France,Paris,,Digital Realty,2731,2.8,48.86172113256364,2.34726499320402,,Active,,,,,,,,,,,,,,,,
3 Marchel Cachin PAR9,France,La Courneuve,,Digital Realty,6438,12.8,48.908297984544596,2.376650346854877,,Active,,,,,,,,,,,,,,,,
2 Marchel Cachin PAR11,France,La Courneuve,,Digital Realty,8878,19.2,48.914017415550035,2.3989099213893517,,Active,,,,,,,,,,,,,,,,
14 Rue de l'orme a moineaux PAR13,France,Les Ulis,,Digital Realty,21700,80,48.67862028652801,2.1852309881119116,,Active,,,,,,,,,,,,,,,,
Profile Park DUB14,Ireland,Kilcarbery,,Digital Realty,2137,5,53.32115433081294,-6.4207950004055805,,Active,,,,,,,,,,,,,,,,
Parkwest Industiral Estate DUB1,Ireland,Dublin,,Digital Realty,1301,1,53.33815262130722,-6.271608968899659,,Active,,,,,,,,,,,,,,,,
Cyrus One DUB 1,Ireland,Ballybane,,CyrusOne,22854,54,53.258428036040755,-8.99539463863907,,Active,,,,,,,,,,,,,,,,
DB3,Ireland,Ballycoolin,,Equinix,6270,11,53.37550610263331,-6.335592587203888,,Active,,,,,,,,,,,,,,,,
Keppel DC Dublin 1,Ireland,Dublin,,Keppel Data Centres,65,16,53.34607647637652,-6.244673219178942,,Active,,,,,,,,,,,,,,,,
Cessnalaan 50 AMS7,The Netherlands,Amsterdam,,Digital Realty,9653,14.8,52.383827565365806,4.900063762731081,,Active,,,,,,,,,,,,,,,,
Cessnalaan 1-33 AMS3,The Netherlands,Amsterdam,,Digital Realty,4887,2.2,52.36456306311244,4.900175846239262,,Active,,,,,,,,,,,,,,,,
Koolhovenlaan 25 AMS6,The Netherlands,Amsterdam,,Digital Realty,4400,10,52.37248580184787,4.896899329849375,,Active,,,,,,,,,,,,,,,,
Iron Mountain Data Centers AMS 1,The Netherlands,Haarlem,,Iron Mountain,12900,60,52.385491568300374,4.664164985572125,,Active,,,,,,,,,,,,,,,,
nLighten Amsterdam AMS ll,The Netherlands,Schiphol-Rijk,,nlighten,3600,4.2,52.284313365808515,4.771622546728949,,Active,,,,,,,,,,,,,,,,
Calle de Alfonso Gomez MAD4,Spain,Madrid,,Digital Realty,35000,5,40.4066565216595,-3.697189337136224,,Active,,,,,,,,,,,,,,,,
Calle de Emilio Munoz 49-51 MAD3,Spain,Madrid,,Digital Realty,3502,5.8,40.414179968255425,-3.7184450246573806,,Active,,,,,,,,,,,,,,,,
Calle de Albasanz 73 MAD2,Spain,Madrid,,Digital Realty,1709,2.4,40.43310371250013,-3.704552563744966,,Active,,,,,,,,,,,,,,,,
Calle de Albasanz 71 MAD1,Spain,Madrid,,Digital Realty,5258,3.6,40.431536493067505,-3.6910475422790565,,Active,,,,,,,,,,,,,,,,
nLighten Madrid MA1,Spain,Madrid,,nLighten,3300,2,40.39943106476876,-3.720133531230485,,Active,,,,,,,,,,,,,,,,
ESbogatan 11 STO4,Sweden,Kista,,Digital Realty,948,1.8,59.40954252450575,17.962648318211624,,Active,,,,,,,,,,,,,,,,
Vandagatan 3 STO6,Sweden,Kista,,Digital Realty,3484,4.9,59.41507580637459,17.937271065720658,,Active,,,,,,,,,,,,,,,,
Esbogatan 11 STO3,Sweden,Kista,,Digital Realty,901,1.5,59.41956880139718,17.934384864013943,,Active,,,,,,,,,,,,,,,,
Esbogatan 11 STO2,Sweden,Kista,,Digital Realty,1254,1.8,59.42200044946061,17.935460565700954,,Active,,,,,,,,,,,,,,,,
Conapto Stockholm 3 North,Sweden,Sollentuna,,Conapto,3400,6,59.408802521371875,17.965984765303975,,Active,,,,,,,,,,,,,,,,
Conapto Stockholm 2 South,Sweden,Skarholmen,,Conapto,2100,4,59.2796956709701,17.905622267498305,,Active,,,,,,,,,,,,,,,,
STO01A Vaultica Data Centers,Sweden,Vasby,,Vaultica,5600,12,59.52530682093164,17.911328875143774,,Active,,,,,,,,,,,,,,,,
atNorth SWE01,Sweden,Kista,,atnorth,2800,12,59.40795252707797,17.933955497115683,,Active,,,,,,,,,,,,,,,,
Conapto Stockholm 1 City,Sweden,Stockholm,,Conapto,1300,1,59.3225875555501,18.0779296974535,,Active,,,,,,,,,,,,,,,,
Equinix SK2,Sweden,Skondal,,Equinix,6000,15,59.26666255416463,18.11497427694672,,Active,,,,,,,,,,,,,,,,
Equinix TR7,Canada,Brampton,Ontario,Equinix,85770,16,43.74,-79.72,,Active,,,,,,,,,,,,,,,,
Urbacon DC Toronto DC7,Canada,Toronto,Ontario,Urbacon Data Centres,165000,22,43.74,-79.62,,Active,,,,,,,,,,,,,,,,
PureColo DC2,Canada,Ottawa,Ontario,PureColo,25000,2.5,45.34,-75.69,,Active,,,,,,,,,,,,,,,,
Quebec City (QC2) Data Center Campus,Canada,Quebec City,Quebec,Vantage Data Centers,925000,86,46.8,-71.31,,Construction,,,,,,,,,,,,,,,,
Cologix MTL11,Canada,Montreal,Quebec,Cologix,25000,1,45.5,-73.56,,Active,,,,,,,,,,,,,,,,
Cologix MTL7,Canada,Montreal,Quebec,Cologix,26000,2.6,45.4,-73.54,,Active,,,,,,,,,,,,,,,,
Bell Aliant Halifax,Canada,Halifax,Nova Scotia,Bell Aliant,42776,1,44.66,-63.59,,Active,,,,,,,,,,,,,,,,
Qu Edmonton 1,Canada,Edmonton,Alberta,Qu Data Centres,187840,49,53.53,-113.49,,Active,,,,,,,,,,,,,,,,
Equinix CL 1,Canada,Calgary,Alberta,Equinix,12947,0.8,51.04,-114.08,,Active,,,,,,,,,,,,,,,,
Cologix VAN1,Canada,Vancouver,British Columbia,Cologix,5000,0.75,49.28,-123.11,,Active,,,,,,,,,,,,,,,,
151 Front St,Canada,Toronto,Ontario,Telehouse,205000,20,43.64502988,-79.38419266,,Active,,,,,,,,,,,,,,,,
Cologix MTL10,Canada,Montreal,Quebec,Cologix,180000,35,45.49776493,-73.57107068,,Active,,,,,,,,,,,,,,,,
BCE Richardson,Canada,Regina,Saskatchewan,BCE,501345,300,50.39702466,-104.4118095,,Planned,,,,,,,,,,,,,,,,
TOR4,Canada,Markham,Ontario,Cologix,50000,11,43.85088767,-79.34266835,,Active,,,,,,,,,,,,,,,,
Equinix CL3,Canada,Calgary,Alberta,Equinix,65725,17,50.97714658,-113.9566447,,Active,,,,,,,,,,,,,,,,
Q01-1,Canada,Levis,Quebec,QScale,40000,12,46.6757899230572,-71.3276121347718,,Active,,,,,,,,,,,,,,,,
Q01-2,Canada,Levis,Quebec,QScale,40000,12,46.6757899230572,-71.3276121347718,,Construction,,,,,,,,,,,,,,,,
QC6 - Montreal III,Canada,Baie-d'Urfé,Quebec,Vantage Data Centers,348480,89,45.4182062600739,-73.9276512224551,,Active,,,,,,,,,,,,,,,,
QC4 - Montreal II,Canada,Pointe-Claire,Quebec,Vantage Data Centers,320000,48,45.4753563365138,-73.8006219790259,,Active,,,,,,,,,,,,,,,,
YYZ10,Canada,Markham,Ontario,Digital Realty,48297.666,6.7,43.8385252931682,-79.3235104930741,,Active,,,,,,,,,,,,,,,,
TOR1,Canada,Vaughan,Ontario,Digital Realty,208001.805,39,43.7792979206063,-79.5396278091949,,Active,,,,,,,,,,,,,,,,
CL3,Canada,Calgary,Alberta,Equinix,65725,17,50.9771060480079,-113.956676892958,,Active,,,,,,,,,,,,,,,,
CL1,Canada,Calgary,Alberta,Equinix,12948,1,51.0456596654557,-114.068868890312,,Active,,,,,,,,,,,,,,,,
CL2,Canada,Calgary,Alberta,Equinix,16651,2,51.0481136519906,-114.009379151482,,Active,,,,,,,,,,,,,,,,
Rio de Janeiro 1,Brazil,Vinhedo,São Paulo,Ascenty,75347.3729,10,-23.0297,-46.9753,,Active,,,,,,,,,,,,,,,,
SP5x,Brazil,São Paulo,São Paulo,Equinix,54756.012,14.4,-23.463,-46.8627,,Active,,,,,,,,,,,,,,,,
SGIGSM01,Brazil,Rio de Janeiro,Rio de Janeiro,Scala,70794,7.8,-22.79825294,-43.35646465,,Active,,,,,,,,,,,,,,,,
ADA Rio de Janeiro,Brazil,Rio de Janeiro,Rio de Janeiro,Ada Infrastructure,,60,-22.70749374,-43.22411039,,Construction,,,,,,,,,,,,,,,,
IDX,Brazil,Palmas,Tocantins,IDX Data Centers & IT Services,2690.978,1.2,-10.18746285,-48.340885,,Active,,,,,,,,,,,,,,,,
HostDime Brazil,Brazil,São Paulo,São Paulo,HostDime,25004.564,5.9,-23.59767943,-46.84876326,,Active,,,,,,,,,,,,,,,,
Tamboré,Brazil,São Paulo,São Paulo,NextStream,4600,6.1,-23.4684666,-46.85006472,,Active,,,,,,,,,,,,,,,,
PLN1,Brazil,Paulinia,São Paulo,Ascenty,86003.6442,13,-22.7969446347911,-47.1345730323582,,Active,,,,,,,,,,,,,,,,
SP1,Brazil,Osasco,São Paulo,Ascenty,37598.3391,6,-23.4910235840639,-46.777683389786,,Active,,,,,,,,,,,,,,,,
SP2,Brazil,Osasco,São Paulo,Ascenty,91396.3633,14,-23.4910235840639,-46.777683389786,,Active,,,,,,,,,,,,,,,,
SP3,Brazil,Osasco,São Paulo,Ascenty,43001.8221,4,-23.4910235840639,-46.777683389786,,Active,,,,,,,,,,,,,,,,
RJ2,Brazil,Rio de Janeiro,Rio de Janeiro,Equinix,30677.14,9,-22.8711775670458,-43.2732709192793,,Active,,,,,,,,,,,,,,,,
RJ1 Botafogo,Brazil,Rio de Janeiro,Rio de Janeiro,Equinix,15065,1,-22.9548648951133,-43.1945600543638,,Active,,,,,,,,,,,,,,,,
Equinix SG1,Singapore,Singapore,N/A,Equinix,109211,13.5,1.29552,103.78989,,Active,,,,,,,,,,,,,,,,
SIN11,Singapore,Singapore,N/A,Digital Realty,183000,13.2,1.3711,103.968,,Active,,,,,,,,,,,,,,,,
Sin12,Singapore,Singapore,N/A,Digital Realty,365000,50,1.37035,103.966,,Construction,,,,,,,,,,,,,,,,
Serangoon,Singapore,Singapore,N/A,NTT Data,53820,8.6,1.3764459,103.87531,,Active,,,,,,,,,,,,,,,,
SIN-1,Singapore,Singapore,N/A,Iron Mountain,154000,7.3,1.3759896,103.87149,,Active,,,,,,,,,,,,,,,,
STT 6,Singapore,Singapore,N/A,ST Telemedia Global Data Centres,290625,40,1.378695757,103.9631229,,Active,,,,,,,,,,,,,,,,
STT 4,Singapore,Singapore,N/A,ST Telemedia Global Data Centres,247109,18,1.292184275,103.7923808,,Active,,,,,,,,,,,,,,,,
STT 1,Singapore,Singapore,N/A,ST Telemedia Global Data Centres,150584,13,1.34964287,103.8915978,,Active,,,,,,,,,,,,,,,,
DC Tuas,Singapore,Singapore,N/A,Nxera,119996,58,1.320632065,103.6572479,,Active,,,,,,,,,,,,,,,,
DC West,Singapore,Singapore,N/A,Nxera,570000,36,1.325230365,103.7216035,,Active,,,,,,,,,,,,,,,,
Keppel Floating DC Singapore,Singapore,Singapore,N/A,Keppel,187830.24,19.2,1.381809518,103.9704728,,Planned,,,,,,,,,,,,,,,,
Epsilon Global Hubs,Singapore,Singapore,N/A,Epsilon,26446.928,2.5,1.35184437,103.8616424,,Active,,,,,,,,,,,,,,,,
SG1,Singapore,Singapore,N/A,Princeton Digital Group,48297.666,17,1.378496509,103.872924,,Active,,,,,,,,,,,,,,,,
MAA10,India,Chennai,Tamil Nadu,Digital Realty,196000,150,13.09935897,80.17211618,,Active,,,,,,,,,,,,,,,,
NM1,India,Mumbai,Maharashtra,Yotta,820000,52,18.92254853,73.20207231,,Active,,,,,,,,,,,,,,,,
MU1,India,Mumbai,Maharashtra,Princeton Digital Group,383195.21,150,19.16745184,72.9907507,,Active,,,,,,,,,,,,,,,,
HD-1,India,Hyderabad,Telangana,Iron Mountain,120000,5.5,17.4620132,78.34308926,,Active,,,,,,,,,,,,,,,,
CN1,India,Chennai,Tamil Nadu,Equinix,8073,24,12.81935988,80.22152652,,Active,,,,,,,,,,,,,,,,
Chennai II,India,Chennai,Tamil Nadu,Nxtra,269097.7604,24,12.82281,80.21360162,,Active,,,,,,,,,,,,,,,,
CtrlS Bangalore DC1,India,Bengaluru,Karnataka,CtrlS Bangalore DC1,106536,12,12.84281991,77.67119667,,Active,,,,,,,,,,,,,,,,
Bengaluru 4,India,Bengaluru,Karnataka,NTT Data,182986.48,67.2,13.19338634,77.64465987,,Construction,,,,,,,,,,,,,,,,
HYD11,India,Hyderabad,Telangana,Microsoft,248506.3998,48,17.23177025,78.19127512,,Construction,,,,,,,,,,,,,,,,
Sify Hyderabad,India,Hyderabad,Telangana,Sify,30000,14,17.42289552,78.33103583,,Construction,,,,,,,,,,,,,,,,
NCR-1,India,New Delhi,Delhi,Iron Mountain,69735,12,28.62887633,77.38414907,,Active,,,,,,,,,,,,,,,,
STT Delhi DC 1,India,New Delhi,Delhi,ST Telemedia Global Data Centres,4500,1.6,28.63105073,77.20783749,,Active,,,,,,,,,,,,,,,,
STT Delhi DC 3,India,New Delhi,Delhi,ST Telemedia Global Data Centres,120000,6,28.54305817,77.24023742,,Active,,,,,,,,,,,,,,,,
GDC - Mumbai 6,India,Mumbai,Maharashtra,NTT Data,90416.8475,19.2,19.11231785,72.88642073,,Active,,,,,,,,,,,,,,,,
MUM-2,India,Mumbai,Maharashtra,Iron Mountain,120000,6,19.14132398,73.00813411,,Active,,,,,,,,,,,,,,,,
CHN 1,India,Chennai,Tamil Nadu,L&T Vyoma,387995.915,30,12.90078209,79.8097969,,Active,,,,,,,,,,,,,,,,
GDC - Chennai 1,India,Chennai,Tamil Nadu,NTT Data,16145.87,2,13.06204448,80.13396892,,Active,,,,,,,,,,,,,,,,
Cyfuture Bangalore,India,Bengaluru,Karnataka,Cyfuture,1991.323,3,12.9660167,77.61525494,,Active,,,,,,,,,,,,,,,,
SIN10,Singapore,Singapore,N/A,Digital Realty,171899.6494,20.4,1.32799574657793,103.746036842393,,Active,,,,,,,,,,,,,,,,
STT 5,Singapore,Singapore,N/A,ST Telemedia Global Data Centres,75855.97,13.8,1.33551038290341,103.890335317126,,Active,,,,,,,,,,,,,,,,
STT 2,Singapore,Singapore,N/A,ST Telemedia Global Data Centres,44282.7275,12,1.34990906646897,103.891846286757,,Active,,,,,,,,,,,,,,,,
STT 3,Singapore,Singapore,N/A,ST Telemedia Global Data Centres,156000,15.2,1.35056671470412,103.891450242328,,Active,,,,,,,,,,,,,,,,
NT Banggrak,Thailand,Bangkok,,nt Data Center,1700,2.7,13.738714713827468,100.51303090819071,,Active,,,,,,,,,,,,,,,,
Bangkok 2 Data Center,Thailand,Chon Buri,,NTT Data,3800,4.5,13.37525785148099,101.00393300415841,,Active,,,,,,,,,,,,,,,,
PROEN OTT DC,Thailand,Bangkok,,PROEN Corp,10000,5,13.744094192217215,100.51053790256465,,Active,,,,,,,,,,,,,,,,
NT Nonthaburi 1,Thailand,Nonthaburi,,nt Data Center,1000,1.7,13.848704728809812,100.53192923554978,,Active,,,,,,,,,,,,,,,,
NT Nonthaburi 2,Thailand,Nonthaburi,,nt Data Center,1000,1.7,13.848378677264222,100.50877571125359,,Active,,,,,,,,,,,,,,,,
STT Bangkok 3,Thailand,Bangkok,,ST Telemedia,3000,2,13.772766379343897,100.50785683724062,,Active,,,,,,,,,,,,,,,,
Telehouse Bangkok,Thailand,Bangkok,,KDDI,9000,9.5,13.764917501458605,100.49515271256654,,Active,,,,,,,,,,,,,,,,
GDC Bangkok 3 Data Center,Thailand,Chon Buri,,NTT Data,4000,12,13.373178173866238,100.99485251714012,,Active,,,,,,,,,,,,,,,,
Evolution DC Bangkok,Thailand,Bangkok,,Evolution Data Centers,20470,52,13.747978728402542,100.51505239433224,,Under Construction,,,,,,,,,,,,,,,,
DAMAC Digital Bangkok,Thailand,Bangkok,,DAMAC Digital,19000,10,13.75146958307395,100.5169263509311,,Planned,,,,,,,,,,,,,,,,
Equinix DC1,USA,Ashburn,VA,Equinix,,8,39.018,-77.4715,,Active,,,,,,,,,,,,,,,,
Equinix DC2,USA,Ashburn,VA,Equinix,,8,39.0181,-77.4716,,Active,,,,,,,,,,,,,,,,
Equinix DC4,USA,Ashburn,VA,Equinix,,12,39.0179,-77.4719,,Active,,,,,,,,,,,,,,,,
Equinix DC5,USA,Ashburn,VA,Equinix,,15,39.0177,-77.4712,,Active,,,,,,,,,,,,,,,,
Equinix DC6,USA,Ashburn,VA,Equinix,,12,39.0182,-77.4714,,Active,,,,,,,,,,,,,,,,
Equinix DC10,USA,Ashburn,VA,Equinix,,18,39.0114,-77.4681,,Active,,,,,,,,,,,,,,,,
Equinix DC12,USA,Ashburn,VA,Equinix,,20,39.0116,-77.4679,,Active,,,,,,,,,,,,,,,,
Equinix DC21,USA,Ashburn,VA,Equinix,,30,39.0121,-77.4662,,Active,,,,,,,,,,,,,,,,
Equinix DC22,USA,Ashburn,VA,Equinix,,32,39.0122,-77.4664,,Active,,,,,,,,,,,,,,,,
Digital Realty IAD35,USA,Ashburn,VA,Digital Realty,,18,39.0146,-77.4768,,Active,,,,,,,,,,,,,,,,
Digital Realty IAD36,USA,Ashburn,VA,Digital Realty,,22,39.0148,-77.477,,Active,,,,,,,,,,,,,,,,
Digital Realty IAD38,USA,Ashburn,VA,Digital Realty,,22,39.0151,-77.4771,,Active,,,,,,,,,,,,,,,,
Digital Realty IAD39,USA,Ashburn,VA,Digital Realty,,24,39.0149,-77.4758,,Active,,,,,,,,,,,,,,,,
AWS IAD50,USA,Ashburn,VA,Amazon Web Services,,40,39.0167,-77.4755,,Active,,,,,,,,,,,,,,,,
AWS IAD60,USA,Ashburn,VA,Amazon Web Services,,40,39.0169,-77.4757,,Active,,,,,,,,,,,,,,,,
AWS IAD10,USA,Sterling,VA,Amazon Web Services,,36,39.0225,-77.444,,Active,,,,,,,,,,,,,,,,
AWS IAD105,USA,Manassas,VA,Amazon Web Services,,50,38.776,-77.4691,,Active,,,,,,,,,,,,,,,,
Iron Mountain VA-1,USA,Manassas,VA,Iron Mountain,,60,38.791,-77.5095,,Active,,,,,,,,,,,,,,,,
CoreSite VA1,USA,Reston,VA,CoreSite,,12,38.9572,-77.3581,,Active,,,,,,,,,,,,,,,,
CoreSite VA2,USA,Reston,VA,CoreSite,,18,38.9569,-77.3578,,Active,,,,,,,,,,,,,,,,
CoreSite VA3,USA,Reston,VA,CoreSite,,30,38.9561,-77.3567,,Active,,,,,,,,,,,,,,,,
QTS Ashburn DC1,USA,Ashburn,VA,QTS,,72,39.0088,-77.4612,,Active,,,,,,,,,,,,,,,,
QTS Manassas DC1,USA,Manassas,VA,QTS,,36,38.7485,-77.4812,,Active,,,,,,,,,,,,,,,,
CyrusOne Sterling I,USA,Sterling,VA,CyrusOne,,30,39.0161,-77.4161,,Active,,,,,,,,,,,,,,,,
CyrusOne Sterling II,USA,Sterling,VA,CyrusOne,,30,39.0152,-77.4134,,Active,,,,,,,,,,,,,,,,
Sabey Ashburn SDC1,USA,Ashburn,VA,Sabey,,36,39.0039,-77.4739,,Construction,,,,,,,,,,,,,,,,
DataBank IAD1,USA,Ashburn,VA,DataBank,,6,39.0231,-77.4661,,Active,,,,,,,,,,,,,,,,
EdgeConneX EDCIAD01,USA,Herndon,VA,EdgeConneX,,8,38.9792,-77.3833,,Active,,,,,,,,,,,,,,,,
Vantage VA11,USA,Ashburn,VA,Vantage,,48,39.0332,-77.4903,,Active,,,,,,,,,,,,,,,,
Vantage VA12,USA,Ashburn,VA,Vantage,,48,39.0335,-77.4905,,Active,,,,,,,,,,,,,,,,
Equinix FR1,Germany,Frankfurt,Hesse,Equinix,,6,50.0999,8.6731,,Active,,,,,,,,,,,,,,,,
Equinix FR2,Germany,Frankfurt,Hesse,Equinix,,8,50.092,8.6419,,Active,,,,,,,,,,,,,,,,
Equinix FR4,Germany,Frankfurt,Hesse,Equinix,,15,50.0972,8.6256,,Active,,,,,,,,,,,,,,,,
Equinix FR5,Germany,Frankfurt,Hesse,Equinix,,12,50.0988,8.6259,,Active,,,,,,,,,,,,,,,,
Equinix FR6,Germany,Frankfurt,Hesse,Equinix,,10,50.0825,8.5541,,Active,,,,,,,,,,,,,,,,
Equinix FR7,Germany,Frankfurt,Hesse,Equinix,,20,50.1005,8.6531,,Active,,,,,,,,,,,,,,,,
Equinix FR8,Germany,Frankfurt,Hesse,Equinix,,10,50.0975,8.6253,,Active,,,,,,,,,,,,,,,,
Equinix FR9x,Germany,Frankfurt,Hesse,Equinix,,40,50.1345,8.6843,,Active,,,,,,,,,,,,,,,,
Equinix FR11x,Germany,Frankfurt,Hesse,Equinix,,30,50.1348,8.6849,,Active,,,,,,,,,,,,,,,,
Digital Realty FRA10,Germany,Frankfurt,Hesse,Digital Realty,,18,50.1189,8.7088,,Active,,,,,,,,,,,,,,,,
Digital Realty FRA16,Germany,Frankfurt,Hesse,Digital Realty,,18,50.1194,8.7081,,Active,,,,,,,,,,,,,,,,
Digital Realty FRA17,Germany,Frankfurt,Hesse,Digital Realty,,22,50.1195,8.7077,,Active,,,,,,,,,,,,,,,,
Digital Realty FRA32,Germany,Frankfurt,Hesse,Digital Realty,,30,50.0843,8.5512,,Active,,,,,,,,,,,,,,,,
NTT Frankfurt 1,Germany,Frankfurt,Hesse,NTT Data,,25,50.1422,8.5882,,Active,,,,,,,,,,,,,,,,
NTT Frankfurt 2,Germany,Frankfurt,Hesse,NTT Data,,20,50.119,8.7075,,Active,,,,,,,,,,,,,,,,
NTT Frankfurt 3,Germany,Frankfurt,Hesse,NTT Data,,18,50.1425,8.5879,,Active,,,,,,,,,,,,,,,,
NTT Frankfurt 4,Germany,Frankfurt,Hesse,NTT Data,,30,50.1429,8.5885,,Active,,,,,,,,,,,,,,,,
Telehouse Frankfurt,Germany,Frankfurt,Hesse,Telehouse,,8,50.0991,8.6254,,Active,,,,,,,,,,,,,,,,
Maincubes FRA01,Germany,Offenbach,Hesse,Maincubes,,8,50.1003,8.7622,,Active,,,,,,,,,,,,,,,,
Maincubes FRA02,Germany,Schwalbach,Hesse,Maincubes,,12,50.1505,8.5408,,Active,,,,,,,,,,,,,,,,
Maincubes FRA03,Germany,Schwalbach,Hesse,Maincubes,,16,50.151,8.5411,,Active,,,,,,,,,,,,,,,,
ITENOS Frankfurt Eschborn,Germany,Eschborn,Hesse,ITENOS,,6,50.1428,8.5689,,Active,,,,,,,,,,,,,,,,
AWS FRA54,Germany,Frankfurt,Hesse,Amazon Web Services,,20,50.1426,8.5876,,Active,,,,,,,,,,,,,,,,
Microsoft FRA29,Germany,Frankfurt,Hesse,Microsoft,,24,50.1288,8.5719,,Active,,,,,,,,,,,,,,,,
Vantage FRA11,Germany,Offenbach,Hesse,Vantage,,24,50.1009,8.7615,,Active,,,,,,,,,,,,,,,,
CyrusOne FRA1,Germany,Frankfurt,Hesse,CyrusOne,,20,50.118,8.7211,,Active,,,,,,,,,,,,,,,,
CyrusOne FRA2,Germany,Frankfurt,Hesse,CyrusOne,,24,50.1185,8.7216,,Construction,,,,,,,,,,,,,,,,
Equinix DB1,Ireland,Dublin,Leinster,Equinix,,6,53.2942,-6.4028,,Active,,,,,,,,,,,,,,,,
Equinix DB2,Ireland,Dublin,Leinster,Equinix,,8,53.3333,-6.4378,,Active,,,,,,,,,,,,,,,,
Equinix DB4,Ireland,Dublin,Leinster,Equinix,,10,53.3911,-6.3812,,Active,,,,,,,,,,,,,,,,
Equinix DB5x,Ireland,Dublin,Leinster,Equinix,,30,53.3925,-6.3805,,Active,,,,,,,,,,,,,,,,
Equinix DB6x,Ireland,Dublin,Leinster,Equinix,,36,53.3929,-6.3801,,Construction,,,,,,,,,,,,,,,,
Digital Realty DUB4,Ireland,Dublin,Leinster,Digital Realty,,14,53.3258,-6.4498,,Active,,,,,,,,,,,,,,,,
Digital Realty DUB9,Ireland,Dublin,Leinster,Digital Realty,,18,53.3267,-6.4508,,Active,,,,,,,,,,,,,,,,
Digital Realty DUB12,Ireland,Dublin,Leinster,Digital Realty,,20,53.3273,-6.4515,,Active,,,,,,,,,,,,,,,,
Digital Realty DUB15,Ireland,Dublin,Leinster,Digital Realty,,24,53.3281,-6.452,,Active,,,,,,,,,,,,,,,,
AWS Dublin 1,Ireland,Dublin,Leinster,Amazon Web Services,,30,53.3897,-6.2265,,Active,,,,,,,,,,,,,,,,
AWS Dublin 2,Ireland,Dublin,Leinster,Amazon Web Services,,30,53.3891,-6.2261,,Active,,,,,,,,,,,,,,,,
AWS Dublin 3,Ireland,Dublin,Leinster,Amazon Web Services,,36,53.3918,-6.3781,,Active,,,,,,,,,,,,,,,,
Microsoft DUB05,Ireland,Dublin,Leinster,Microsoft,,27,53.3288,-6.4521,,Active,,,,,,,,,,,,,,,,
Microsoft DUB06,Ireland,Dublin,Leinster,Microsoft,,27,53.3291,-6.4525,,Active,,,,,,,,,,,,,,,,
Microsoft DUB07,Ireland,Dublin,Leinster,Microsoft,,30,53.3294,-6.4528,,Active,,,,,,,,,,,,,,,,
Microsoft DUB08,Ireland,Dublin,Leinster,Microsoft,,30,53.3297,-6.4532,,Active,,,,,,,,,,,,,,,,
Microsoft DUB14,Ireland,Dublin,Leinster,Microsoft,,36,53.3301,-6.4538,,Active,,,,,,,,,,,,,,,,
Google Dublin 1,Ireland,Dublin,Leinster,Google,,30,53.3278,-6.4537,,Active,,,,,,,,,,,,,,,,
Google Dublin 2,Ireland,Dublin,Leinster,Google,,60,53.3282,-6.4542,,Active,,,,,,,,,,,,,,,,
CyrusOne DUB2,Ireland,Dublin,Leinster,CyrusOne,,24,53.3285,-6.4556,,Active,,,,,,,,,,,,,,,,
CyrusOne DUB3,Ireland,Dublin,Leinster,CyrusOne,,26,53.3291,-6.4561,,Active,,,,,,,,,,,,,,,,
Echelon DUB10,Ireland,Dublin,Leinster,Echelon,,90,53.3215,-6.3972,,Construction,,,,,,,,,,,,,,,,
Echelon DUB20,Ireland,Arklow,Leinster,Echelon,,100,52.7935,-6.1518,,Construction,,,,,,,,,,,,,,,,
Keppel DC Dublin 2,Ireland,Dublin,Leinster,Keppel,,8,53.2939,-6.4035,,Active,,,,,,,,,,,,,,,,
EdgeConneX EDCDUB01,Ireland,Dublin,Leinster,EdgeConneX,,24,53.3891,-6.2269,,Active,,,,,,,,,,,,,,,,
Servecentric Dublin,Ireland,Dublin,Leinster,Servecentric,,3,53.3897,-6.3792,,Active,,,,,,,,,,,,,,,,
Vantage DUB1,Ireland,Dublin,Leinster,Vantage,,52,53.3285,-6.4569,,Construction,,,,,,,,,,,,,,,,
Equinix TY2,Japan,Tokyo,Tokyo,Equinix,,5,35.6283,139.7392,,Active,,,,,,,,,,,,,,,,
Equinix TY4,Japan,Tokyo,Tokyo,Equinix,,6,35.6287,139.7388,,Active,,,,,,,,,,,,,,,,
Equinix TY5,Japan,Tokyo,Tokyo,Equinix,,7,35.6295,139.7384,,Active,,,,,,,,,,,,,,,,
Equinix TY6,Japan,Tokyo,Tokyo,Equinix,,8,35.652,139.7945,,Active,,,,,,,,,,,,,,,,
Equinix TY8,Japan,Tokyo,Tokyo,Equinix,,10,35.6181,139.7414,,Active,,,,,,,,,,,,,,,,
Equinix TY11,Japan,Tokyo,Tokyo,Equinix,,18,35.6348,139.7952,,Active,,,,,,,,,,,,,,,,
Equinix TY12x,Japan,Inzai,Chiba,Equinix,,54,35.7802,140.1688,,Active,,,,,,,,,,,,,,,,
Telehouse Koto 1,Japan,Tokyo,Tokyo,KDDI,,6,35.6538,139.7968,,Active,,,,,,,,,,,,,,,,
Telehouse Koto 2,Japan,Tokyo,Tokyo,KDDI,,8,35.6541,139.797,,Active,,,,,,,,,,,,,,,,
Telehouse Tama 3,Japan,Tama,Tokyo,KDDI,,12,35.6245,139.4432,,Active,,,,,,,,,,,,,,,,
Telehouse Tama 5,Japan,Tama,Tokyo,KDDI,,24,35.6258,139.4472,,Active,,,,,,,,,,,,,,,,
NTT Tokyo 1,Japan,Tokyo,Tokyo,NTT Data,,15,35.6874,139.769,,Active,,,,,,,,,,,,,,,,
NTT Tokyo 2,Japan,Tokyo,Tokyo,NTT Data,,18,35.6441,139.7968,,Active,,,,,,,,,,,,,,,,
NTT Tokyo 5,Japan,Mitaka,Tokyo,NTT Data,,20,35.6828,139.5593,,Active,,,,,,,,,,,,,,,,
NTT Tokyo 10,Japan,Mitaka,Tokyo,NTT Data,,25,35.6832,139.5596,,Active,,,,,,,,,,,,,,,,
NTT Tokyo 11,Japan,Inzai,Chiba,NTT Data,,50,35.7818,140.1701,,Construction,,,,,,,,,,,,,,,,
NTT Tokyo 12,Japan,Inzai,Chiba,NTT Data,,200,35.7825,140.1715,,Planned,,,,,,,,,,,,,,,,
Colt Inzai 1,Japan,Inzai,Chiba,Colt,,8,35.7781,140.1655,,Active,,,,,,,,,,,,,,,,
Colt Inzai 2,Japan,Inzai,Chiba,Colt,,15,35.7785,140.1661,,Active,,,,,,,,,,,,,,,,
Colt Inzai 3,Japan,Inzai,Chiba,Colt,,27,35.7789,140.1668,,Active,,,,,,,,,,,,,,,,
Colt Inzai 4,Japan,Inzai,Chiba,Colt,,20,35.7793,140.1674,,Construction,,,,,,,,,,,,,,,,
Digital Realty NRT10,Japan,Inzai,Chiba,Digital Realty,,26,35.781,140.1695,,Active,,,,,,,,,,,,,,,,
Digital Realty NRT12,Japan,Inzai,Chiba,Digital Realty,,36,35.7814,140.1698,,Active,,,,,,,,,,,,,,,,
Digital Realty NRT14,Japan,Inzai,Chiba,Digital Realty,,38,35.7819,140.1702,,Construction,,,,,,,,,,,,,,,,
AT TOKYO CC1,Japan,Tokyo,Tokyo,AT TOKYO,,12,35.6549,139.7958,,Active,,,,,,,,,,,,,,,,
AT TOKYO CC2,Japan,Tokyo,Tokyo,AT TOKYO,,14,35.6551,139.796,,Active,,,,,,,,,,,,,,,,
IIJ Shiroi DC Campus,Japan,Shiroi,Chiba,IIJ,,40,35.7903,140.0549,,Active,,,,,,,,,,,,,,,,
AirTrunk SYD1,Australia,Huntingwood,NSW,AirTrunk,,130,-33.7799,150.8628,,Active,,,,,,,,,,,,,,,,
AirTrunk SYD2,Australia,Lane Cove West,NSW,AirTrunk,,120,-33.8149,151.153,,Active,,,,,,,,,,,,,,,,
AirTrunk SYD3,Australia,Huntingwood,NSW,AirTrunk,,110,-33.7789,150.8645,,Active,,,,,,,,,,,,,,,,
NEXTDC S1,Australia,Macquarie Park,NSW,NEXTDC,,16,-33.7785,151.1309,,Active,,,,,,,,,,,,,,,,
NEXTDC S2,Australia,Macquarie Park,NSW,NEXTDC,,30,-33.7782,151.1305,,Active,,,,,,,,,,,,,,,,
NEXTDC S3,Australia,Artarmon,NSW,NEXTDC,,80,-33.8095,151.1862,,Active,,,,,,,,,,,,,,,,
NEXTDC S4,Australia,Horsley Park,NSW,NEXTDC,,350,-33.841,150.8529,,Construction,,,,,,,,,,,,,,,,
NEXTDC S5,Australia,Macquarie Park,NSW,NEXTDC,,80,-33.7794,151.1302,,Construction,,,,,,,,,,,,,,,,
NEXTDC S6,Australia,Artarmon,NSW,NEXTDC,,13,-33.8101,151.1858,,Active,,,,,,,,,,,,,,,,
NEXTDC S7,Australia,Eastern Creek,NSW,NEXTDC,,550,-33.8028,150.8513,,Planned,,,,,,,,,,,,,,,,
Equinix SY1,Australia,Mascot,NSW,Equinix,,8,-33.9265,151.1854,,Active,,,,,,,,,,,,,,,,
Equinix SY2,Australia,Mascot,NSW,Equinix,,10,-33.9268,151.1858,,Active,,,,,,,,,,,,,,,,
Equinix SY3,Australia,Alexandria,NSW,Equinix,,12,-33.9175,151.1919,,Active,,,,,,,,,,,,,,,,
Equinix SY4,Australia,Mascot,NSW,Equinix,,14,-33.9271,151.1862,,Active,,,,,,,,,,,,,,,,
Equinix SY5,Australia,Alexandria,NSW,Equinix,,18,-33.9167,151.1925,,Active,,,,,,,,,,,,,,,,
Equinix SY6,Australia,Silverwater,NSW,Equinix,,10,-33.8251,151.053,,Active,,,,,,,,,,,,,,,,
Equinix SY9x,Australia,Rosehill,NSW,Equinix,,40,-33.8268,151.0242,,Active,,,,,,,,,,,,,,,,
Digital Realty SYD10,Australia,Erskine Park,NSW,Digital Realty,,20,-33.8152,150.807,,Active,,,,,,,,,,,,,,,,
Digital Realty SYD11,Australia,Erskine Park,NSW,Digital Realty,,32,-33.8159,150.8078,,Active,,,,,,,,,,,,,,,,
Macquarie IC3,Australia,Macquarie Park,NSW,Macquarie Data Centres,,18,-33.7775,151.1278,,Active,,,,,,,,,,,,,,,,
Macquarie IC2,Australia,Macquarie Park,NSW,Macquarie Data Centres,,10,-33.778,151.1283,,Active,,,,,,,,,,,,,,,,
Global Switch Sydney East,Australia,Ultimo,NSW,Global Switch,,36,-33.881,151.199,,Active,,,,,,,,,,,,,,,,
Global Switch Sydney West,Australia,Ultimo,NSW,Global Switch,,52,-33.8815,151.1994,,Active,,,,,,,,,,,,,,,,
CDC Eastern Creek 1,Australia,Eastern Creek,NSW,CDC,,21,-33.8012,150.8639,,Active,,,,,,,,,,,,,,,,
CDC Eastern Creek 2,Australia,Eastern Creek,NSW,CDC,,28,-33.8017,150.8645,,Active,,,,,,,,,,,,,,,,
DCI SYD02,Australia,Eastern Creek,NSW,DCI Data Centers,,16,-33.8038,150.8629,,Active,,,,,,,,,,,,,,,,
YTL Sydney,Australia,Auburn,NSW,YTL,,30,-33.8481,151.0352,,Construction,,,,,,,,,,,,,,,,
QTS PHX1,USA,Phoenix,AZ,QTS,,24,33.4378,-112.1421,,Active,,,,,,,,,,,,,,,,
QTS PHX2,USA,Phoenix,AZ,QTS,,30,33.4381,-112.1425,,Active,,,,,,,,,,,,,,,,
CyrusOne PHX1,USA,Chandler,AZ,CyrusOne,,15,33.3074,-111.9752,,Active,,,,,,,,,,,,,,,,
CyrusOne PHX2,USA,Chandler,AZ,CyrusOne,,15,33.3078,-111.9756,,Active,,,,,,,,,,,,,,,,
CyrusOne PHX3,USA,Chandler,AZ,CyrusOne,,18,33.3082,-111.976,,Active,,,,,,,,,,,,,,,,
CyrusOne PHX4,USA,Chandler,AZ,CyrusOne,,18,33.3086,-111.9764,,Active,,,,,,,,,,,,,,,,
CyrusOne PHX5,USA,Chandler,AZ,CyrusOne,,20,33.309,-111.9768,,Active,,,,,,,,,,,,,,,,
CyrusOne PHX6,USA,Chandler,AZ,CyrusOne,,24,33.3094,-111.9772,,Active,,,,,,,,,,,,,,,,
CyrusOne PHX7,USA,Chandler,AZ,CyrusOne,,24,33.3098,-111.9776,,Active,,,,,,,,,,,,,,,,
CyrusOne PHX8,USA,Chandler,AZ,CyrusOne,,30,33.3102,-111.978,,Active,,,,,,,,,,,,,,,,
CyrusOne Mesa,USA,Mesa,AZ,CyrusOne,,198,33.3462,-111.689,,Construction,,,,,,,,,,,,,,,,
Iron Mountain AZP-1,USA,Phoenix,AZ,Iron Mountain,,12,33.4485,-112.074,,Active,,,,,,,,,,,,,,,,
Iron Mountain AZP-2,USA,Phoenix,AZ,Iron Mountain,,18,33.4492,-112.0748,,Active,,,,,,,,,,,,,,,,
Iron Mountain AZS-1,USA,Scottsdale,AZ,Iron Mountain,,10,33.5795,-111.8895,,Active,,,,,,,,,,,,,,,,
Aligned PHX-01,USA,Phoenix,AZ,Aligned,,30,33.6532,-112.1128,,Active,,,,,,,,,,,,,,,,
Aligned PHX-02,USA,Phoenix,AZ,Aligned,,48,33.6535,-112.1132,,Active,,,,,,,,,,,,,,,,
EdgeConneX PHX01,USA,Tempe,AZ,EdgeConneX,,8,33.3935,-111.9663,,Active,,,,,,,,,,,,,,,,
Digital Realty PHX10,USA,Phoenix,AZ,Digital Realty,,22,33.4524,-112.0731,,Active,,,,,,,,,,,,,,,,
Digital Realty PHX11,USA,Mesa,AZ,Digital Realty,,36,33.3471,-111.6861,,Active,,,,,,,,,,,,,,,,
Vantage AZ11,USA,Goodyear,AZ,Vantage,,16,33.4551,-112.3575,,Active,,,,,,,,,,,,,,,,
Vantage AZ12,USA,Goodyear,AZ,Vantage,,32,33.4555,-112.3579,,Active,,,,,,,,,,,,,,,,
Vantage AZ13,USA,Goodyear,AZ,Vantage,,32,33.4559,-112.3583,,Active,,,,,,,,,,,,,,,,
Vantage AZ14,USA,Goodyear,AZ,Vantage,,48,33.4563,-112.3587,,Construction,,,,,,,,,,,,,,,,
PhoenixNAP Phoenix,USA,Phoenix,AZ,PhoenixNAP,,15,33.4219,-111.9901,,Active,,,,,,,,,,,,,,,,
H5 Phoenix,USA,Chandler,AZ,H5,,16,33.2885,-111.8941,,Active,,,,,,,,,,,,,,,,
Stream Goodyear,USA,Goodyear,AZ,Stream Data Centers,,48,33.4672,-112.3681,,Active,,,,,,,,,,,,,,,,
NTT PH1,USA,Mesa,AZ,NTT Data,,36,33.3481,-111.6878,,Active,,,,,,,,,,,,,,,,
Compass Mesa,USA,Mesa,AZ,Compass Datacenters,,48,33.3495,-111.6842,,Construction,,,,,,,,,,,,,,,,
Equinix SK1,Sweden,Bromma,Stockholm,Equinix,,5,59.3538,17.9611,,Active,,,,,,,,,,,,,,,,
Equinix SK3,Sweden,Spånga,Stockholm,Equinix,,6,59.3862,17.8881,,Active,,,,,,,,,,,,,,,,
Digital Realty STO5,Sweden,Kista,Stockholm,Digital Realty,,8,59.4038,17.9481,,Active,,,,,,,,,,,,,,,,
Digital Realty STO6,Sweden,Kista,Stockholm,Digital Realty,,12,59.4042,17.9488,,Active,,,,,,,,,,,,,,,,
atNorth SWE02,Sweden,Kista,Stockholm,atNorth,,30,59.4022,17.9488,,Construction,,,,,,,,,,,,,,,,
EcoDataCenter Falun,Sweden,Falun,,EcoDataCenter,,90,60.6028,15.6328,,Active,,,,,,,,,,,,,,,,
EcoDataCenter Horndal,Sweden,Horndal,,EcoDataCenter,,75,60.2952,16.4285,,Active,,,,,,,,,,,,,,,,
EcoDataCenter Stockholm,Sweden,Stockholm,Stockholm,EcoDataCenter,,5,59.3358,18.0632,,Active,,,,,,,,,,,,,,,,
Bahnhof Pionen,Sweden,Stockholm,Stockholm,Bahnhof,,4,59.3135,18.0682,,Active,,,,,,,,,,,,,,,,
Bahnhof Thule,Sweden,Stockholm,Stockholm,Bahnhof,,3,59.3395,18.0425,,Active,,,,,,,,,,,,,,,,
Multigrid Falun,Sweden,Falun,,Multigrid,,150,60.6005,15.6301,,Construction,,,,,,,,,,,,,,,,
Meta Luleå,Sweden,Luleå,,Meta,,120,65.6183,22.1306,,Active,,,,,,,,,,,,,,,,
Microsoft Gävle,Sweden,Gävle,,Microsoft,,60,60.6745,17.1413,,Active,,,,,,,,,,,,,,,,
Microsoft Sandviken,Sweden,Sandviken,,Microsoft,,40,60.6166,16.772,,Active,,,,,,,,,,,,,,,,
DigiPlex Oslo Ulven DNAS,Norway,Oslo,Oslo,DigiPlex,,15,59.9275,10.8225,,Active,,,,,,,,,,,,,,,,
DigiPlex Oslo Rosenholm DRAS,Norway,Oslo,Oslo,DigiPlex,,18,59.8278,10.7925,,Active,,,,,,,,,,,,,,,,
DigiPlex Fetsund,Norway,Fetsund,Oslo,DigiPlex,,20,59.9267,11.1685,,Active,,,,,,,,,,,,,,,,
Green Mountain OSL1 Rjukan,Norway,Rjukan,,Green Mountain,,35,59.8745,8.5915,,Active,,,,,,,,,,,,,,,,
Green Mountain OSL2 Hamar,Norway,Hamar,,Green Mountain,,30,60.8138,11.0892,,Active,,,,,,,,,,,,,,,,
Green Mountain DC1 Stavanger,Norway,Rennesøy,,Green Mountain,,45,59.0782,5.7648,,Active,,,,,,,,,,,,,,,,
Equinix HE1,Finland,Helsinki,,Equinix,,6,60.2215,24.8631,,Active,,,,,,,,,,,,,,,,
Equinix HE3,Finland,Helsinki,,Equinix,,5,60.1918,24.9518,,Active,,,,,,,,,,,,,,,,
Equinix HE5,Finland,Helsinki,,Equinix,,8,60.2155,24.9055,,Active,,,,,,,,,,,,,,,,
Equinix HE6,Finland,Espoo,,Equinix,,10,60.1799,24.7638,,Active,,,,,,,,,,,,,,,,
Equinix HE7,Finland,Espoo,,Equinix,,15,60.1805,24.7649,,Active,,,,,,,,,,,,,,,,
atNorth FIN02,Finland,Espoo,,atNorth,,12,60.1805,24.7635,,Active,,,,,,,,,,,,,,,,
atNorth FIN03,Finland,Espoo,,atNorth,,18,60.2068,24.7735,,Active,,,,,,,,,,,,,,,,
Verne Finland,Finland,Vantaa,,Verne,,12,60.2966,25.0395,,Active,,,,,,,,,,,,,,,,
